$GNVTG,,T,,M,0.184,N,0.341,K,A*36
$GNGGA,114111.20,5050.03948,N,00421.88077,E,1,07,1.46,87.1,M,46.2,M,,*7E
$GNRMC,114111.40,A,5050.03956,N,00421.88097,E,0.144,,220224,,,A,V*10
$GNVTG,,T,,M,0.144,N,0.266,K,A*3E
$GNGGA,114111.40,5050.03956,N,00421.88097,E,1,07,1.46,86.9,M,46.2,M,,*70
$GNRMC,114111.60,A,5050.03971,N,00421.88094,E,0.171,,220224,,,A,V*12
$GNVTG,,T,,M,0.171,N,0.317,K,A*3F
$GNGGA,114111.60,5050.03971,N,00421.88094,E,1,07,1.46,86.9,M,46.2,M,,*74
$GNGSA,A,3,12,28,32,11,06,,,,,,,,3.29,1.46,2.95,1*0A
$GNRMC,114111.80,A,5050.03989,N,00421.88083,E,0.298,,220224,,,A,V*19
$GNVTG,,T,,M,0.298,N,0.552,K,A*3C
$GNGGA,114111.80,5050.03989,N,00421.88083,E,1,07,1.46,87.1,M,46.2,M,,*72
$GNRMC,114112.00,A,5050.04004,N,00421.88080,E,0.321,,220224,,,A,V*19
$GNVTG,,T,,M,0.321,N,0.595,K,A*34
$GNGGA,114112.00,5050.04004,N,00421.88080,E,1,07,1.46,87.2,M,46.2,M,,*72
$GNRMC,114112.20,A,5050.04014,N,00421.88087,E,0.334,,220224,,,A,V*19
$GNVTG,,T,,M,0.334,N,0.618,K,A*36
$GNGGA,114112.20,5050.04014,N,00421.88087,E,1,07,1.46,87.2,M,46.2,M,,*76
$GNRMC,114112.40,A,5050.04032,N,00421.88084,E,0.259,,220224,,,A,V*12
$GNVTG,,T,,M,0.259,N,0.480,K,A*3F
$GNGGA,114112.40,5050.04032,N,00421.88084,E,1,07,1.46,87.2,M,46.2,M,,*77
$GNGSA,A,3,12,28,32,11,06,,,,,,,,3.29,1.46,2.95,1*0A
$GNRMC,114112.60,A,5050.04040,N,00421.88099,E,0.214,,220224,,,A,V*10
$GNVTG,,T,,M,0.214,N,0.397,K,A*37
$GNGGA,114112.60,5050.04040,N,00421.88099,E,1,07,1.46,87.0,M,46.2,M,,*7E
$GNRMC,114112.80,A,5050.04052,N,00421.88110,E,0.238,,220224,,,A,V*13
$GNVTG,,T,,M,0.238,N,0.440,K,A*34
$GNGGA,114112.80,5050.04052,N,00421.88110,E,1,07,1.46,86.8,M,46.2,M,,*7A
$GNRMC,114113.00,A,5050.04069,N,00421.88112,E,0.140,,220224,,,A,V*1C
$GNVTG,,T,,M,0.140,N,0.260,K,A*3C
$GNGGA,114113.00,5050.04069,N,00421.88112,E,1,07,1.46,86.8,M,46.2,M,,*79
$GNRMC,114113.20,A,5050.04088,N,00421.88112,E,0.067,,220224,,,A,V*15
$GNVTG,,T,,M,0.067,N,0.124,K,A*3B
$GNGGA,114113.20,5050.04088,N,00421.88112,E,1,07,1.46,86.7,M,46.2,M,,*7B
$GNGSA,A,3,12,28,32,11,06,,,,,,,,3.29,1.46,2.95,1*0A
$GNRMC,114113.40,A,5050.04106,N,00421.88109,E,0.140,,220224,,,A,V*1A
$GNVTG,,T,,M,0.140,N,0.260,K,A*3C
$GNGGA,114113.40,5050.04106,N,00421.88109,E,1,07,1.46,86.8,M,46.2,M,,*7F
$GNRMC,114113.60,A,5050.04125,N,00421.88102,E,0.234,,220224,,,A,V*12
$GNVTG,,T,,M,0.234,N,0.433,K,A*3C
$GNGGA,114113.60,5050.04125,N,00421.88102,E,1,07,1.46,87.2,M,46.2,M,,*7C
$GNTXT,01,01,00,txbuf alloc*61
$GNRMC,114113.80,A,5050.04135,N,00421.88120,E,0.296,,220224,,,A,V*15
$GNVTG,,T,,M,0.296,N,0.549,K,A*38
$GNGGA,114113.80,5050.04135,N,00421.88120,E,1,07,1.46,87.3,M,46.2,M,,*72
$GNRMC,114114.00,A,5050.04152,N,00421.88115,E,0.299,,220224,,,A,V*12
$GNVTG,,T,,M,0.299,N,0.555,K,A*3A
$GNGGA,114114.00,5050.04152,N,00421.88115,E,1,07,1.46,87.6,M,46.2,M,,*7F
$GNGSA,A,3,12,28,32,11,06,,,,,,,,3.29,1.46,2.95,1*0A
$GNRMC,114114.20,A,5050.04167,N,00421.88120,E,0.112,,220224,,,A,V*10
$GNVTG,,T,,M,0.112,N,0.208,K,A*35
$GNGGA,114114.20,5050.04167,N,00421.88120,E,1,07,1.46,87.6,M,46.2,M,,*7D
$GNRMC,114114.40,A,5050.04178,N,00421.88132,E,0.169,,220224,,,A,V*17
$GNVTG,,T,,M,0.169,N,0.314,K,A*35
$GNGGA,114114.40,5050.04178,N,00421.88132,E,1,07,1.46,87.5,M,46.2,M,,*75
$GNRMC,114114.60,A,5050.04186,N,00421.88147,E,0.098,,220224,,,A,V*19
$GNVTG,,T,,M,0.098,N,0.181,K,A*34
$GNGGA,114114.60,5050.04186,N,00421.88147,E,1,07,1.46,87.5,M,46.2,M,,*74
$GNGSA,A,3,12,28,32,11,06,,,,,,,,3.29,1.46,2.95,1*0A
$GNRMC,114114.80,A,5050.04201,N,00421.88149,E,0.116,,220224,,,A,V*12
$GNVTG,,T,,M,0.116,N,0.214,K,A*3C
$GNGGA,114114.80,5050.04201,N,00421.88149,E,1,07,1.46,87.6,M,46.2,M,,*7B
$GNRMC,114115.00,A,5050.04218,N,00421.88155,E,0.385,,220224,,,A,V*16
$GNVTG,,T,,M,0.385,N,0.713,K,A*36
$GNGGA,114115.00,5050.04218,N,00421.88155,E,1,07,1.46,87.6,M,46.2,M,,*77
$GNRMC,114115.20,A,5050.04235,N,00421.88158,E,0.358,,220224,,,A,V*16
$GNVTG,,T,,M,0.358,N,0.664,K,A*37
$GNGGA,114115.20,5050.04235,N,00421.88158,E,1,07,1.46,87.7,M,46.2,M,,*76
$GNGSA,A,3,12,28,32,11,06,,,,,,,,3.29,1.46,2.95,1*0A
$GNRMC,114115.40,A,5050.04246,N,00421.88169,E,0.334,,220224,,,A,V*1C
$GNVTG,,T,,M,0.334,N,0.618,K,A*36
$GNGGA,114115.40,5050.04246,N,00421.88169,E,1,07,1.46,87.8,M,46.2,M,,*79
$GNRMC,114115.60,A,5050.04264,N,00421.88160,E,0.304,,220224,,,A,V*14
$GNVTG,,T,,M,0.304,N,0.563,K,A*3A
$GNGGA,114115.60,5050.04264,N,00421.88160,E,1,07,1.46,88.1,M,46.2,M,,*74
$GNRMC,114115.80,A,5050.04280,N,00421.88152,E,0.321,,220224,,,A,V*16
$GNVTG,,T,,M,0.321,N,0.594,K,A*35
$GNGGA,114115.80,5050.04280,N,00421.88152,E,1,07,1.46,88.2,M,46.2,M,,*72
$GNRMC,114116.00,A,5050.04294,N,00421.88152,E,0.302,,220224,,,A,V*19
$GNVTG,,T,,M,0.302,N,0.560,K,A*3F
$GNGGA,114116.00,5050.04294,N,00421.88152,E,1,07,1.46,88.4,M,46.2,M,,*7A
$GNGSA,A,3,12,28,32,11,06,,,,,,,,3.29,1.46,2.94,1*0B
$GNRMC,114116.20,A,5050.04310,N,00421.88150,E,0.280,,220224,,,A,V*1F
$GNVTG,,T,,M,0.280,N,0.518,K,A*3B
$GNGGA,114116.20,5050.04310,N,00421.88150,E,1,07,1.46,88.7,M,46.2,M,,*74
$GNRMC,114116.40,A,5050.04328,N,00421.88143,E,0.306,,220224,,,A,V*1F
$GNVTG,,T,,M,0.306,N,0.566,K,A*3D
$GNGGA,114116.40,5050.04328,N,00421.88143,E,1,07,1.46,88.8,M,46.2,M,,*74
$GNRMC,114116.60,A,5050.04342,N,00421.88141,E,0.380,,220224,,,A,V*1D
$GNVTG,,T,,M,0.380,N,0.705,K,A*34
$GNGGA,114116.60,5050.04342,N,00421.88141,E,1,07,1.46,88.9,M,46.2,M,,*79
$GNRMC,114116.80,A,5050.04351,N,00421.88141,E,0.155,,220224,,,A,V*1B
$GNVTG,,T,,M,0.155,N,0.287,K,A*31
$GNGGA,114116.80,5050.04351,N,00421.88141,E,1,07,1.46,89.0,M,46.2,M,,*7D
$GNGSA,A,3,12,28,32,11,06,,,,,,,,3.29,1.46,2.94,1*0B
$GNRMC,114117.00,A,5050.04352,N,00421.88158,E,0.116,,220224,,,A,V*1E
$GNVTG,,T,,M,0.116,N,0.215,K,A*3D
$GNGGA,114117.00,5050.04352,N,00421.88158,E,1,07,1.46,88.9,M,46.2,M,,*77
$GNRMC,114117.20,A,5050.04357,N,00421.88169,E,0.113,,220224,,,A,V*1E
$GNVTG,,T,,M,0.113,N,0.210,K,A*3D
$GNGGA,114117.20,5050.04357,N,00421.88169,E,1,08,1.30,88.9,M,46.2,M,,*7C
$GNRMC,114117.40,A,5050.04363,N,00421.88182,E,0.152,,220224,,,A,V*1F
$GNVTG,,T,,M,0.152,N,0.281,K,A*30
$GNGGA,114117.40,5050.04363,N,00421.88182,E,1,08,1.30,88.8,M,46.2,M,,*79
$GNRMC,114117.60,A,5050.04370,N,00421.88187,E,0.180,,220224,,,A,V*15
$GNVTG,,T,,M,0.180,N,0.334,K,A*30
$GNGGA,114117.60,5050.04370,N,00421.88187,E,1,08,1.30,88.9,M,46.2,M,,*7D
$GNGSA,A,3,12,28,32,11,06,,,,,,,,3.21,1.30,2.94,1*02
$GNRMC,114117.80,A,5050.04379,N,00421.88198,E,0.110,,220224,,,A,V*15
$GNVTG,,T,,M,0.110,N,0.203,K,A*3C
$GNGGA,114117.80,5050.04379,N,00421.88198,E,1,08,1.29,89.0,M,46.2,M,,*74
$GNRMC,114118.00,A,5050.04394,N,00421.88187,E,0.026,,220224,,,A,V*1B
$GNVTG,,T,,M,0.026,N,0.048,K,A*35
$GNGGA,114118.00,5050.04394,N,00421.88187,E,1,08,1.29,89.3,M,46.2,M,,*7D
$GNRMC,114118.20,A,5050.04404,N,00421.88187,E,0.071,,220224,,,A,V*15
$GNVTG,,T,,M,0.071,N,0.132,K,A*3B